{"AEY":{"lat":65.66,"lon":-18.0727,"name":"Akureyri Airport","country":"IS"},"EGS":{"lat":65.2833,"lon":-14.4014,"name":"Egilsstadir Egilsstaðir Airport","country":"IS"},"HFN":{"lat":64.2956,"lon":-15.2272,"name":"Hofn Hornafjörður Airport","country":"IS"},"HZK":{"lat":65.9523,"lon":-17.426,"name":"Husavik Húsavík Airport","country":"IS"},"IFJ":{"lat":66.0581,"lon":-23.1353,"name":"Isafjordur Ísafjörður Airport","country":"IS"},"KEF":{"lat":63.985,"lon":-22.6056,"name":"Keflavik International Airport","country":"IS"},"PFJ":{"lat":65.5558,"lon":-23.965,"name":"Patreksfjordur Patreksfjörður Airport","country":"IS"},"RKV":{"lat":64.13,"lon":-21.9406,"name":"Reykjavik Airport","country":"IS"},"SIJ":{"lat":66.1333,"lon":-18.9167,"name":"Siglufjordur Siglufjörður Airport","country":"IS"},"VEY":{"lat":63.4243,"lon":-20.2789,"name":"Vestmannaeyjar Airport","country":"IS"},"YUL":{"lat":45.4706,"lon":-73.7408,"name":"Montreal / Pierre Elliott Trudeau International Airport","country":"CA"},"YVR":{"lat":49.1939,"lon":-123.184,"name":"Vancouver International Airport","country":"CA"},"YYZ":{"lat":43.6772,"lon":-79.6306,"name":"Toronto Lester B. Pearson International Airport","country":"CA"},"TUN":{"lat":36.851,"lon":10.2272,"name":"Tunis Carthage International Airport","country":"TN"},"DJE":{"lat":33.875,"lon":10.7755,"name":"Djerba Zarzis International Airport","country":"TN"},"ANR":{"lat":51.1894,"lon":4.4603,"name":"Antwerp International Airport (Deurne)","country":"BE"},"BRU":{"lat":50.9014,"lon":4.4844,"name":"Brussels Airport","country":"BE"},"CRL":{"lat":50.4592,"lon":4.4538,"name":"Brussels South Charleroi Airport","country":"BE"},"KJK":{"lat":50.8172,"lon":3.2047,"name":"Kortrijk-vevelgem Wevelgem Airport","country":"BE"},"LGG":{"lat":50.6374,"lon":5.4432,"name":"Liege Liège Airport","country":"BE"},"OST":{"lat":51.1989,"lon":2.8622,"name":"Ostend-Bruges International Airport","country":"BE"},"OBL":{"lat":51.2647,"lon":4.7533,"name":"Zoersel (Oostmalle) Airfield","country":"BE"},"AOC":{"lat":50.9819,"lon":12.5064,"name":"Altenburg-Nobitz Airport","country":"DE"},"IES":{"lat":51.2936,"lon":13.3561,"name":"Riesa-Göhlis Airport","country":"DE"},"REB":{"lat":53.3064,"lon":12.7522,"name":"Rechlin-laerz Rechlin-Lärz Airport","country":"DE"},"QXH":{"lat":52.2036,"lon":13.1564,"name":"Schoenhagen Schönhagen Airport","country":"DE"},"BBH":{"lat":54.3383,"lon":12.7105,"name":"Barth Airport","country":"DE"},"ZMG":{"lat":52.0736,"lon":11.6264,"name":"Magdeburg \"City\" Airport","country":"DE"},"CBU":{"lat":51.8894,"lon":14.5319,"name":"Cottbus-Drewitz Airport","country":"DE"},"SXF":{"lat":52.38,"lon":13.5225,"name":"Berlin-Schönefeld Airport","country":"DE"},"DRS":{"lat":51.1328,"lon":13.7672,"name":"Dresden Airport","country":"DE"},"ERF":{"lat":50.9798,"lon":10.9581,"name":"Erfurt Airport","country":"DE"},"FRA":{"lat":50.0333,"lon":8.5706,"name":"Frankfurt am Main Airport","country":"DE"},"FMO":{"lat":52.1346,"lon":7.6848,"name":"Munster Münster Osnabrück Airport","country":"DE"},"HAM":{"lat":53.6304,"lon":9.9882,"name":"Hamburg Airport","country":"DE"},"THF":{"lat":52.473,"lon":13.4039,"name":"Berlin-Tempelhof International Airport","country":"DE"},"CGN":{"lat":50.8659,"lon":7.1427,"name":"Cologne Bonn Airport","country":"DE"},"DUS":{"lat":51.2895,"lon":6.7668,"name":"Duesseldorf Düsseldorf Airport","country":"DE"},"MUC":{"lat":48.3538,"lon":11.7861,"name":"Munich Airport","country":"DE"},"NUE":{"lat":49.4987,"lon":11.0781,"name":"Nuernberg Nuremberg Airport","country":"DE"},"LEJ":{"lat":51.4239,"lon":12.2364,"name":"Leipzig/Halle Airport","country":"DE"},"SCN":{"lat":49.2146,"lon":7.1095,"name":"Saarbruecken Saarbrücken Airport","country":"DE"},"STR":{"lat":48.6899,"lon":9.222,"name":"Stuttgart Airport","country":"DE"},"TXL":{"lat":52.5597,"lon":13.2877,"name":"Berlin-Tegel Airport","country":"DE"},"HAJ":{"lat":52.4611,"lon":9.6851,"name":"Hannover Airport","country":"DE"},"BRE":{"lat":53.0475,"lon":8.7867,"name":"Bremen Airport","country":"DE"},"QEF":{"lat":49.96,"lon":8.6458,"name":"Frankfurt-Egelsbach Airport","country":"DE"},"HHN":{"lat":49.9487,"lon":7.2639,"name":"Frankfurt-Hahn Airport","country":"DE"},"MHG":{"lat":49.4731,"lon":8.5142,"name":"Mannheim-City Airport","country":"DE"},"EIB":{"lat":50.9916,"lon":10.4797,"name":"Eisenach-Kindel Airport","country":"DE"},"SGE":{"lat":50.7077,"lon":8.083,"name":"Siegerland Airport","country":"DE"},"XFW":{"lat":53.5353,"lon":9.8356,"name":"Hamburg-Finkenwerder Airport","country":"DE"},"KEL":{"lat":54.3794,"lon":10.1453,"name":"Kiel-Holtenau Airport","country":"DE"},"LBC":{"lat":53.8054,"lon":10.7192,"name":"Luebeck Lübeck Blankensee Airport","country":"DE"},"ESS":{"lat":51.4023,"lon":6.9373,"name":"Essen Mulheim Airport","country":"DE"},"BFE":{"lat":51.9647,"lon":8.5444,"name":"Bielefeld Airport","country":"DE"},"MGL":{"lat":51.2303,"lon":6.5044,"name":"Moenchengladbach Mönchengladbach Airport","country":"DE"},"PAD":{"lat":51.6141,"lon":8.6163,"name":"Paderborn Lippstadt Airport","country":"DE"},"DTM":{"lat":51.5183,"lon":7.6122,"name":"Dortmund Airport","country":"DE"},"AGB":{"lat":48.4253,"lon":10.9317,"name":"Augsburg Airport","country":"DE"},"OBF":{"lat":48.0814,"lon":11.2831,"name":"Oberpfaffenhofen Airport","country":"DE"},"RBM":{"lat":48.9008,"lon":12.5167,"name":"Straubing Airport","country":"DE"},"FDH":{"lat":47.6713,"lon":9.5115,"name":"Friedrichshafen Airport","country":"DE"},"SZW":{"lat":53.427,"lon":11.7834,"name":"Schwerin Parchim Airport","country":"DE"},"BYU":{"lat":49.985,"lon":11.64,"name":"Bayreuth Airport","country":"DE"},"URD":{"lat":49.7942,"lon":11.1336,"name":"Burg Feuerstein Airport","country":"DE"},"HOQ":{"lat":50.2886,"lon":11.8564,"name":"Hof-Plauen Airport","country":"DE"},"ZQW":{"lat":49.2094,"lon":7.4006,"name":"Zweibruecken Zweibrücken Airport","country":"DE"},"ZQL":{"lat":47.9733,"lon":8.5222,"name":"Donaueschingen-Villingen Airport","country":"DE"},"BWE":{"lat":52.3192,"lon":10.5561,"name":"Braunschweig-Wolfsburg Airport","country":"DE"},"KSF":{"lat":51.4173,"lon":9.385,"name":"Kassel-Calden Airport","country":"DE"},"BRV":{"lat":53.5069,"lon":8.5728,"name":"Bremerhaven Airport","country":"DE"},"EME":{"lat":53.3911,"lon":7.2275,"name":"Emden Airport","country":"DE"},"WVN":{"lat":53.5022,"lon":8.0522,"name":"Wilhelmshaven-Mariensiel Airport","country":"DE"},"BMK":{"lat":53.5964,"lon":6.7092,"name":"Borkum Airport","country":"DE"},"NRD":{"lat":53.7069,"lon":7.23,"name":"Norderney Airport","country":"DE"},"FLF":{"lat":54.7733,"lon":9.3789,"name":"Flensburg-Schäferhaus Airport","country":"DE"},"GWT":{"lat":54.9132,"lon":8.3405,"name":"Westerland Sylt Airport","country":"DE"},"KDL":{"lat":58.9908,"lon":22.8307,"name":"Kardla Kärdla Airport","country":"EE"},"URE":{"lat":58.2299,"lon":22.5095,"name":"Kuressaare Airport","country":"EE"},"EPU":{"lat":58.419,"lon":24.4728,"name":"Parnu Pärnu Airport","country":"EE"},"TLL":{"lat":59.4133,"lon":24.8328,"name":"Tallinn-ulemiste International Lennart Meri Tallinn Airport","country":"EE"},"TAY":{"lat":58.3075,"lon":26.6904,"name":"Tartu Airport","country":"EE"},"ENF":{"lat":68.3626,"lon":23.4243,"name":"Enontekio Airport","country":"FI"},"KEV":{"lat":61.856,"lon":24.7867,"name":"Halli Airport","country":"FI"},"HEM":{"lat":60.2546,"lon":25.0428,"name":"Helsinki Malmi Airport","country":"FI"},"HEL":{"lat":60.3172,"lon":24.9633,"name":"Helsinki Vantaa Airport","country":"FI"},"HYV":{"lat":60.6544,"lon":24.8811,"name":"Hyvinkaa Hyvinkää Airfield","country":"FI"},"KTQ":{"lat":62.1661,"lon":30.0736,"name":"Kitee Airport","country":"FI"},"IVL":{"lat":68.6073,"lon":27.4053,"name":"Ivalo Airport","country":"FI"},"JOE":{"lat":62.6629,"lon":29.6075,"name":"Joensuu Airport","country":"FI"},"JYV":{"lat":62.3995,"lon":25.6783,"name":"Jyvaskyla Airport","country":"FI"},"KAU":{"lat":63.1271,"lon":23.0514,"name":"Kauhava Airport","country":"FI"},"KEM":{"lat":65.7787,"lon":24.5821,"name":"Kemi-Tornio Airport","country":"FI"},"KAJ":{"lat":64.2855,"lon":27.6924,"name":"Kajaani Airport","country":"FI"},"KHJ":{"lat":62.4625,"lon":22.3931,"name":"Kauhajoki Airport","country":"FI"},"KOK":{"lat":63.7212,"lon":23.1431,"name":"Kruunupyy Kokkola-Pietarsaari Airport","country":"FI"},"KAO":{"lat":65.9876,"lon":29.2394,"name":"Kuusamo Airport","country":"FI"},"KTT":{"lat":67.701,"lon":24.8468,"name":"Kittila Kittilä Airport","country":"FI"},"KUO":{"lat":63.0071,"lon":27.7978,"name":"Kuopio Airport","country":"FI"},"QLF":{"lat":61.1442,"lon":25.6935,"name":"Lahti Vesivehmaa Airport","country":"FI"},"LPP":{"lat":61.0446,"lon":28.1447,"name":"Lappeenranta Airport","country":"FI"},"MHQ":{"lat":60.1222,"lon":19.8982,"name":"Mariehamn Airport","country":"FI"},"MIK":{"lat":61.6866,"lon":27.2018,"name":"Mikkeli Airport","country":"FI"},"OUL":{"lat":64.9301,"lon":25.3546,"name":"Oulu Airport","country":"FI"},"POR":{"lat":61.4617,"lon":21.8,"name":"Pori Airport","country":"FI"},"RVN":{"lat":66.5648,"lon":25.8304,"name":"Rovaniemi Airport","country":"FI"},"SVL":{"lat":61.9431,"lon":28.9451,"name":"Savonlinna Airport","country":"FI"},"SOT":{"lat":67.395,"lon":26.6191,"name":"Sodankyla Airport","country":"FI"},"TMP":{"lat":61.4141,"lon":23.6044,"name":"Tampere-Pirkkala Airport","country":"FI"},"TKU":{"lat":60.5141,"lon":22.2628,"name":"Turku Airport","country":"FI"},"UTI":{"lat":60.8964,"lon":26.9384,"name":"Utti Air Base","country":"FI"},"VAA":{"lat":63.0507,"lon":21.7622,"name":"Vaasa Airport","country":"FI"},"VRK":{"lat":62.1711,"lon":27.8686,"name":"Varkaus Airport","country":"FI"},"YLI":{"lat":64.0547,"lon":24.7253,"name":"Ylivieska-raudaskyla Ylivieska Airfield","country":"FI"},"BHX":{"lat":52.4539,"lon":-1.748,"name":"Birmingham International Airport","country":"GB"},"MAN":{"lat":53.3537,"lon":-2.275,"name":"Manchester Airport","country":"GB"},"BRS":{"lat":51.3827,"lon":-2.7191,"name":"Bristol Airport","country":"GB"},"LTN":{"lat":51.8747,"lon":-0.3683,"name":"London Luton Airport","country":"GB"},"LGW":{"lat":51.1481,"lon":-0.1903,"name":"London Gatwick Airport","country":"GB"},"LHR":{"lat":51.4706,"lon":-0.4619,"name":"London Heathrow Airport","country":"GB"},"NCL":{"lat":55.0375,"lon":-1.6917,"name":"Newcastle Airport","country":"GB"},"GLA":{"lat":55.8719,"lon":-4.4331,"name":"Glasgow International Airport","country":"GB"},"EDI":{"lat":55.95,"lon":-3.3725,"name":"Edinburgh Airport","country":"GB"},"STN":{"lat":51.885,"lon":0.235,"name":"London Stansted Airport","country":"GB"},"AMS":{"lat":52.3086,"lon":4.7639,"name":"Amsterdam Airport Schiphol","country":"NL"},"MST":{"lat":50.9117,"lon":5.7701,"name":"Maastricht Aachen Airport","country":"NL"},"EIN":{"lat":51.4501,"lon":5.3745,"name":"Eindhoven Airport","country":"NL"},"GRQ":{"lat":53.1197,"lon":6.5794,"name":"Groningen Eelde Airport","country":"NL"},"GLZ":{"lat":51.5674,"lon":4.9318,"name":"Gilze-rijen Gilze Rijen Air Base","country":"NL"},"DHR":{"lat":52.9234,"lon":4.7806,"name":"De Kooy Airport","country":"NL"},"LEY":{"lat":52.4603,"lon":5.5272,"name":"Lelystad Airport","country":"NL"},"LWR":{"lat":53.2286,"lon":5.7606,"name":"Leeuwarden Air Base","country":"NL"},"RTM":{"lat":51.9569,"lon":4.4372,"name":"Rotterdam The Hague Airport","country":"NL"},"UTC":{"lat":52.1273,"lon":5.2762,"name":"Soesterberg Air Base","country":"NL"},"ENS":{"lat":52.2758,"lon":6.8892,"name":"Enschede Twente Airport","country":"NL"},"LID":{"lat":52.1661,"lon":4.4179,"name":"Valkenburg Naval Air Base","country":"NL"},"WOE":{"lat":51.4491,"lon":4.342,"name":"Woensdrecht Air Base","country":"NL"},"ORK":{"lat":51.8413,"lon":-8.4911,"name":"Cork Airport","country":"IE"},"GWY":{"lat":53.3002,"lon":-8.9416,"name":"Galway Airport","country":"IE"},"DUB":{"lat":53.4213,"lon":-6.2701,"name":"Dublin Airport","country":"IE"},"NOC":{"lat":53.9103,"lon":-8.8185,"name":"Connaught Ireland West Knock Airport","country":"IE"},"KIR":{"lat":52.1809,"lon":-9.5238,"name":"Kerry Airport","country":"IE"},"SNN":{"lat":52.702,"lon":-8.9248,"name":"Shannon Airport","country":"IE"},"SXL":{"lat":54.2802,"lon":-8.5992,"name":"Sligo Airport","country":"IE"},"WAT":{"lat":52.1872,"lon":-7.087,"name":"Waterford Airport","country":"IE"},"AAR":{"lat":56.3,"lon":10.619,"name":"Aarhus Airport","country":"DK"},"BLL":{"lat":55.7403,"lon":9.1518,"name":"Billund Airport","country":"DK"},"CPH":{"lat":55.6179,"lon":12.656,"name":"Copenhagen Kastrup Airport","country":"DK"},"EBJ":{"lat":55.5259,"lon":8.5534,"name":"Esbjerg Airport","country":"DK"},"KRP":{"lat":56.2975,"lon":9.1246,"name":"Karup Airport","country":"DK"},"BYR":{"lat":57.2772,"lon":11.0001,"name":"Laeso Læsø Airport","country":"DK"},"MRW":{"lat":54.6993,"lon":11.4401,"name":"Lolland Falster Maribo Airport","country":"DK"},"ODE":{"lat":55.4767,"lon":10.3309,"name":"Odense Airport","country":"DK"},"RKE":{"lat":55.5856,"lon":12.1314,"name":"Copenhagen Roskilde Airport","country":"DK"},"RNN":{"lat":55.0633,"lon":14.7596,"name":"Ronne Bornholm Airport","country":"DK"},"SGD":{"lat":54.9644,"lon":9.7917,"name":"Soenderborg Sønderborg Airport","country":"DK"},"SKS":{"lat":55.221,"lon":9.267,"name":"Skrydstrup Air Base","country":"DK"},"SQW":{"lat":56.5502,"lon":9.173,"name":"Skive Airport","country":"DK"},"TED":{"lat":57.0688,"lon":8.7052,"name":"Thisted Airport","country":"DK"},"STA":{"lat":55.9901,"lon":8.3539,"name":"Stauning Airport","country":"DK"},"AAL":{"lat":57.0928,"lon":9.8492,"name":"Aalborg Airport","country":"DK"},"LUX":{"lat":49.6233,"lon":6.2044,"name":"Luxemburg Luxembourg-Findel International Airport","country":"LU"},"AES":{"lat":62.5625,"lon":6.1197,"name":"Alesund Ålesund Airport","country":"NO"},"ANX":{"lat":69.2925,"lon":16.1442,"name":"Andoya Andøya Airport","country":"NO"},"ALF":{"lat":69.9761,"lon":23.3717,"name":"Alta Airport","country":"NO"},"BNN":{"lat":65.4611,"lon":12.2175,"name":"Bronnoysund Brønnøysund Airport","country":"NO"},"BOO":{"lat":67.2692,"lon":14.3653,"name":"Bodo Bodø Airport","country":"NO"},"BGO":{"lat":60.2934,"lon":5.2181,"name":"Bergen Airport Flesland","country":"NO"},"BJF":{"lat":70.6005,"lon":29.6914,"name":"Batsfjord Båtsfjord Airport","country":"NO"},"KRS":{"lat":58.2042,"lon":8.0854,"name":"Kristiansand Airport","country":"NO"},"DLD":{"lat":60.4173,"lon":8.5183,"name":"Geilo Airport Dagali","country":"NO"},"BDU":{"lat":69.0558,"lon":18.5404,"name":"Bardufoss Airport","country":"NO"},"EVE":{"lat":68.4913,"lon":16.6781,"name":"Harstad/Narvik Airport, Evenes","country":"NO"},"VDB":{"lat":61.0156,"lon":9.2881,"name":"Fagernes Leirin Airport","country":"NO"},"FRO":{"lat":61.5836,"lon":5.0247,"name":"Floro Florø Airport","country":"NO"},"OSL":{"lat":60.121,"lon":11.0502,"name":"Oslo Lufthavn","country":"NO"},"HAU":{"lat":59.3453,"lon":5.2084,"name":"Haugesund Airport","country":"NO"},"HAA":{"lat":70.4867,"lon":22.1397,"name":"Hasvik Airport","country":"NO"},"KSU":{"lat":63.1118,"lon":7.8245,"name":"Kristiansund Airport (Kvernberget)","country":"NO"},"KKN":{"lat":69.7258,"lon":29.8913,"name":"Kirkenes Airport (Høybuktmoen)","country":"NO"},"FAN":{"lat":58.0995,"lon":6.626,"name":"Farsund Lista Airport","country":"NO"},"MOL":{"lat":62.7447,"lon":7.2625,"name":"Molde Airport","country":"NO"},"MJF":{"lat":65.784,"lon":13.2149,"name":"Mosjoen Mosjøen Airport (Kjærstad)","country":"NO"},"LKL":{"lat":70.0688,"lon":24.9735,"name":"Lakselv Banak Airport","country":"NO"},"NTB":{"lat":59.5657,"lon":9.2122,"name":"Notodden Airport","country":"NO"},"OLA":{"lat":63.6989,"lon":9.604,"name":"Orland Ørland Airport","country":"NO"},"RRS":{"lat":62.5784,"lon":11.3423,"name":"Roros Røros Airport","country":"NO"},"RYG":{"lat":59.3788,"lon":10.7854,"name":"Moss Airport, Rygge","country":"NO"},"LYR":{"lat":78.2461,"lon":15.4656,"name":"Svalbard Airport, Longyear","country":"NO"},"SKE":{"lat":59.185,"lon":9.5669,"name":"Skien Airport","country":"NO"},"SRP":{"lat":59.7919,"lon":5.3408,"name":"Stord Airport","country":"NO"},"SSJ":{"lat":65.9568,"lon":12.4689,"name":"Sandnessjoen Sandnessjøen Airport (Stokka)","country":"NO"},"TOS":{"lat":69.6833,"lon":18.9189,"name":"Tromso Tromsø Airport,","country":"NO"},"TRF":{"lat":59.1867,"lon":10.2586,"name":"Sandefjord Airport, Torp","country":"NO"},"TRD":{"lat":63.4578,"lon":10.924,"name":"Trondheim Airport Værnes","country":"NO"},"SVG":{"lat":58.8767,"lon":5.6378,"name":"Stavanger Airport Sola","country":"NO"},"GDN":{"lat":54.3776,"lon":18.4662,"name":"Gdansk Gdańsk Lech Wałęsa Airport","country":"PL"},"KRK":{"lat":50.0777,"lon":19.7848,"name":"Krakow Kraków John Paul II International Airport","country":"PL"},"KTW":{"lat":50.4743,"lon":19.08,"name":"Katowice International Airport","country":"PL"},"POZ":{"lat":52.421,"lon":16.8263,"name":"Poznan Poznań-Ławica Airport","country":"PL"},"RZE":{"lat":50.11,"lon":22.019,"name":"Rzeszow Rzeszów-Jasionka Airport","country":"PL"},"SZZ":{"lat":53.5847,"lon":14.9022,"name":"Szczecin-Goleniów \"Solidarność\" Airport","country":"PL"},"OSP":{"lat":54.4789,"lon":17.1075,"name":"Slupsk Redzikowo Air Base","country":"PL"},"WAW":{"lat":52.1657,"lon":20.9671,"name":"Warsaw Chopin Airport","country":"PL"},"WRO":{"lat":51.1027,"lon":16.8858,"name":"Wroclaw Copernicus Wrocław Airport","country":"PL"},"IEG":{"lat":52.1385,"lon":15.7986,"name":"Zielona Gora Zielona Góra-Babimost Airport","country":"PL"},"RNB":{"lat":56.2667,"lon":15.265,"name":"Ronneby Airport","country":"SE"},"GOT":{"lat":57.6628,"lon":12.2798,"name":"Gothenborg Gothenburg-Landvetter Airport","country":"SE"},"JKG":{"lat":57.7576,"lon":14.0687,"name":"Joenkoeping Jönköping Airport","country":"SE"},"LDK":{"lat":58.4655,"lon":13.1744,"name":"Lidkoping Lidköping-Hovby Airport","country":"SE"},"GSE":{"lat":57.7747,"lon":11.8704,"name":"Gothenborg Gothenburg City Airport","country":"SE"},"KVB":{"lat":58.4564,"lon":13.9727,"name":"Skovde Skövde Airport","country":"SE"},"THN":{"lat":58.3181,"lon":12.345,"name":"Trollhattan Trollhättan-Vänersborg Airport","country":"SE"},"KSK":{"lat":59.3459,"lon":14.4959,"name":"Karlskoga Airport","country":"SE"},"MXX":{"lat":60.9579,"lon":14.5114,"name":"Mora Airport","country":"SE"},"NYO":{"lat":58.7886,"lon":16.9122,"name":"Stockholm Skavsta Airport","country":"SE"},"KID":{"lat":55.9217,"lon":14.0855,"name":"Kristianstad Airport","country":"SE"},"OSK":{"lat":57.3505,"lon":16.498,"name":"Oskarshamn Airport","country":"SE"},"KLR":{"lat":56.6855,"lon":16.2876,"name":"Kalkmar Kalmar Airport","country":"SE"},"MMX":{"lat":55.5363,"lon":13.3762,"name":"Malmoe Malmö Sturup Airport","country":"SE"},"HAD":{"lat":56.6911,"lon":12.8202,"name":"Halmstad Airport","country":"SE"},"VXO":{"lat":56.9291,"lon":14.728,"name":"Vaxjo Växjö Kronoberg Airport","country":"SE"},"EVG":{"lat":62.0478,"lon":14.4229,"name":"Sveg Airport","country":"SE"},"GEV":{"lat":67.1324,"lon":20.8146,"name":"Gallivare Gällivare Airport","country":"SE"},"HUV":{"lat":61.7681,"lon":17.0807,"name":"Hudiksvall Airport","country":"SE"},"KRF":{"lat":63.0486,"lon":17.7689,"name":"Kramfors Sollefteå Airport","country":"SE"},"LYC":{"lat":64.5483,"lon":18.7162,"name":"Lycksele Airport","country":"SE"},"SDL":{"lat":62.5281,"lon":17.4439,"name":"Sundsvall-Härnösand Airport","country":"SE"},"OER":{"lat":63.4083,"lon":18.99,"name":"Ornskoldsvik Örnsköldsvik Airport","country":"SE"},"KRN":{"lat":67.822,"lon":20.3368,"name":"Kiruna Airport","country":"SE"},"SFT":{"lat":64.6248,"lon":21.0769,"name":"Skelleftea Skellefteå Airport","country":"SE"},"UME":{"lat":63.7918,"lon":20.2828,"name":"Umea Umeå Airport","country":"SE"},"VHM":{"lat":64.5791,"lon":16.8336,"name":"Vilhelmina Airport","country":"SE"},"AJR":{"lat":65.5903,"lon":19.2819,"name":"Arvidsjaur Airport","country":"SE"},"ORB":{"lat":59.2237,"lon":15.038,"name":"Orebro Örebro Airport","country":"SE"},"VST":{"lat":59.5894,"lon":16.6336,"name":"Vasteras Stockholm Västerås Airport","country":"SE"},"LLA":{"lat":65.5438,"lon":22.122,"name":"Lulea Luleå Airport","country":"SE"},"ARN":{"lat":59.6519,"lon":17.9186,"name":"Stockholm-Arlanda Airport","country":"SE"},"BMA":{"lat":59.3544,"lon":17.9417,"name":"Stockholm-Bromma Airport","country":"SE"},"BLE":{"lat":60.422,"lon":15.5152,"name":"Borlange Airport","country":"SE"},"HLF":{"lat":57.5258,"lon":15.8233,"name":"Hultsfred Airport","country":"SE"},"GVX":{"lat":60.5933,"lon":16.9514,"name":"Gavle Gävle Sandviken Airport","country":"SE"},"LPI":{"lat":58.4062,"lon":15.6805,"name":"Linkoeping Linköping City Airport","country":"SE"},"NRK":{"lat":58.5863,"lon":16.2506,"name":"Norrkoeping Norrköping Airport","country":"SE"},"EKT":{"lat":59.3511,"lon":16.7084,"name":"Eskilstuna Airport","country":"SE"},"VBY":{"lat":57.6628,"lon":18.3462,"name":"Visby Airport","country":"SE"},"SPM":{"lat":49.9727,"lon":6.6925,"name":"Spangdahlem Air Base","country":"DE"},"RMS":{"lat":49.4369,"lon":7.6003,"name":"Ramstein Air Base","country":"DE"},"GHF":{"lat":49.6481,"lon":9.9665,"name":"[Duplicate] Giebelstadt Army Air Field","country":"DE"},"ZCN":{"lat":52.5912,"lon":10.0221,"name":"Celle Airport","country":"DE"},"FRZ":{"lat":51.1146,"lon":9.286,"name":"Fritzlar Airport","country":"DE"},"ZNF":{"lat":50.1692,"lon":8.9616,"name":"Hanau Army Air Field","country":"DE"},"KZG":{"lat":49.7431,"lon":10.2006,"name":"Flugplatz Kitzingen","country":"DE"},"FCN":{"lat":53.7677,"lon":8.6585,"name":"Nordholz Naval Airbase","country":"DE"},"GKE":{"lat":50.9608,"lon":6.0424,"name":"Geilenkirchen Air Base","country":"DE"},"RLG":{"lat":53.9182,"lon":12.2783,"name":"Rostock-Laage Airport","country":"DE"},"WBG":{"lat":54.4593,"lon":9.5163,"name":"Schleswig Air Base","country":"DE"},"WIE":{"lat":50.0498,"lon":8.3254,"name":"Wiesbaden Army Airfield","country":"DE"},"FEL":{"lat":48.2056,"lon":11.2669,"name":"Fuerstenfeldbruck Fürstenfeldbruck Air Base","country":"DE"},"IGS":{"lat":48.7157,"lon":11.534,"name":"Ingolstadt Manching Airport","country":"DE"},"GUT":{"lat":51.9228,"lon":8.3063,"name":"Guetersloh Gütersloh Air Base","country":"DE"}}